"city","country","latitude","longitude","languages__001","languages__002"
"New York","United States","40.7128","-74.0060","English","Spanish"
"Paris","France","48.8566","2.3522","French",""
"Tokyo","Japan","35.6895","139.6917","Japanese",""
"Berlin","Germany","52.5200","13.4050","German",""
"Moscow","Russia","55.7512","37.6184","Russian",""
"Mumbai","India","19.0760","72.8777","Hindi","Marathi"
"Colombo","Sri Lanka","6.9271","79.8612","Sinhala","Tamil"
